{"type": "FeatureCollection", "features": [{"type": "Feature", "geometry": {"type": "Point", "coordinates": [-71.59139, 43.23111]}, "properties": {"name": "Penacook Lake (drinking water source)", "kind": "water_source", "side": "West", "note": "Primary supply; ~362-368 acres, ~1.5 billion gal accessible, safe yield 2.5 MGD; avg demand ~3.8 MGD. Class A water.", "source_url": "https://www.concordnh.gov/1396/Water-Source", "confidence": "high"}}, {"type": "Feature", "geometry": {"type": "Point", "coordinates": [-71.5731333, 43.2441682]}, "properties": {"name": "Hutchins Street Water Treatment Plant (53 Hutchins St)", "kind": "water_treatment", "side": "West", "note": "10 MGD design capacity (built 1974); treats ~4 MGD avg, ~5.5 MGD summer. Treats Penacook Lake water for ~12,000 connections via 172 mi of main.", "source_url": "https://www.concordnh.gov/Archive.aspx?ADID=223", "confidence": "high"}}, {"type": "Feature", "geometry": {"type": "Point", "coordinates": [-71.589, 43.2842]}, "properties": {"name": "Contoocook River Pump Station (backup water supply)", "kind": "water_source", "side": "West", "note": "Backup raw-water source during low lake levels; production capacity 7.5 MGD.", "source_url": "https://www.concordnh.gov/1396/Water-Source", "confidence": "low"}}, {"type": "Feature", "geometry": {"type": "Point", "coordinates": [-71.45, 43.18]}, "properties": {"name": "Pembroke Well Field (emergency groundwater)", "kind": "water_source", "side": "East", "note": "Emergency groundwater source adjacent to the Soucook River in Pembroke; 1 MGD capacity, 4 wells up to ~700 gpm combined. Outside Concord bbox (SE).", "source_url": "https://www.concordnh.gov/1396/Water-Source", "confidence": "low"}}, {"type": "Feature", "geometry": {"type": "Point", "coordinates": [-71.573, 43.244]}, "properties": {"name": "Concord water storage tanks (system-wide)", "kind": "water_treatment", "side": "West", "note": "Five storage tanks totaling 7.5 million gallons across the distribution system for pressure regulation and emergency reserve. Representative point near WTP; individual tank sites not enumerated in public source.", "source_url": "https://www.concordnh.gov/Archive.aspx?ADID=223", "confidence": "low"}}, {"type": "Feature", "geometry": {"type": "Point", "coordinates": [-71.5232623, 43.1836637]}, "properties": {"name": "Hall Street Wastewater Treatment Plant (125 Hall St)", "kind": "wastewater", "side": "West", "note": "~10.1 MGD design flow, ~25 MGD peak (built 1979); treats ~4 MGD avg. Two 742,000-gal primary clarifiers. Serves Concord + parts of Bow; discharges to Merrimack.", "source_url": "https://www.concordnh.gov/1353/Wastewater-Treatment", "confidence": "high"}}, {"type": "Feature", "geometry": {"type": "Point", "coordinates": [-71.5892301, 43.2842894]}, "properties": {"name": "Penacook Wastewater Treatment Plant (7 Penacook St)", "kind": "wastewater", "side": "West", "note": "1.2 MGD treatment capacity; treats ~0.3 MGD avg via two sequencing batch reactors (SBR, converted 2005). Discharges to Merrimack River.", "source_url": "https://www.concordnh.gov/1353/Wastewater-Treatment", "confidence": "high"}}]}